[
    {
        "name": "Soho",
        "venue_type": "Neighbourhood",
        "address": "Soho",
        "post_code": "W1d",
        "city": "London",
        "country": "England",
        "lat": "51.5136",
        "lon": "0.1365"
    },
    {
        "name": "Electric Ballroom",
        "venue_type": "Club",
        "address": "184 Camden High St",
        "post_code": "NW1 8QP",
        "city": "London",
        "country": "England",
        "lat": "51.5397",
        "lon": "0.1430"
    },
    {
        "name": "Bloc Bar",
        "venue_type": "Bar or Pub",
        "address": "18 Kentish Town Rd",
        "post_code": "NW1 9NZ",
        "city": "London",
        "country": "England",
        "lat": "51.5400",
        "lon": "0.1421"
    },
    {
        "name": "Proud",
        "venue_type": "Cabaret",
        "address": "1 Mark Lane Opposite Fenchurch St Station",
        "post_code": "EC3R 7AH",
        "city": "London",
        "country": "England",
        "lat": "51.5115",
        "lon": "0.0811"
    },
    {
        "name": "G.A.Y. Late",
        "venue_type": "Club",
        "address": "5 Goslett Yard",
        "post_code": "WC2H 0EA",
        "city": "London",
        "country": "England",
        "lat": "51.5151",
        "lon": "0.1309"
    },
    {
        "name": "Friendly Society,",
        "venue_type": "Bar or Pub",
        "address": "79 Wardour St",
        "post_code": "W1D 6QB",
        "city": "London",
        "country": "England",
        "lat": "51.5124",
        "lon": "0.1333"
    },
    {
        "name": "Two Brewers",
        "venue_type": "Cabaret",
        "address": "114 Clapham High St",
        "post_code": "SW4 7UJ",
        "city": "London",
        "country": "England",
        "lat": "51.4632",
        "lon": "0.1348"
    },
    {
        "name": "National Gallery of Ireland",
        "venue_type": "Museum",
        "address": "Merrion Square W, Dublin 2",
        "post_code": "D02 K303",
        "city": "Dublin",
        "country": "Ireland",
        "lat": "53.6409",
        "lon": "6.2525"
    },
    {
        "name": "Abbey Theatre",
        "venue_type": "Theatre",
        "address": "26/27 Abbey Street Lower, North City, Dublin 1",
        "post_code": "DO1 K0F1",
        "city": "Dublin",
        "country": "Ireland",
        "lat": "53.3484",
        "lon": "6.2572"
    },
    {
        "name": "Richmond Tea Rooms",
        "venue_type": "Café",
        "address": "46 Sackville St",
        "post_code": "M1 3WF",
        "city": "Manchester",
        "country": "England",
        "lat": "53.4764",
        "lon": "2.2366"
    },
    {
        "name": "Northern Quarter",
        "venue_type": "Neighbourhood",
        "address": "Northern Quarter",
        "post_code": "M4",
        "city": "Manchester",
        "country": "England",
        "lat": "53.4825",
        "lon": "2.2345"
    },
    {
        "name": "Bury Market",
        "venue_type": "Market",
        "address": "1 Murray Rd, Bury",
        "post_code": "BL9 0BJ",
        "city": "Manchester",
        "country": "England",
        "lat": "53.5934",
        "lon": "-2.2966"
    },
    {
        "name": "Shelbourne Hotel",
        "venue_type": "Hotel",
        "address": "27 St Stephen's Green",
        "post_code": "D02 K224",
        "city": "Dublin",
        "country": "Ireland",
        "lat": "53.3390",
        "lon": "6.2560"
    },
    {
        "name": "The g hotel",
        "venue_type": "Wedding Venue",
        "address": "Wellpark, The, Old Dublin Rd, Galway",
        "post_code": "H91 V0HR",
        "city": "Galway",
        "country": "Ireland",
        "lat": "53.2817",
        "lon": "9.0321"
    },
    {
        "name": "The Galmont Hotel & Spa",
        "venue_type": "Wedding Venue",
        "address": "Lough Atalia Rd, Galway",
        "post_code": "H91 CYN3",
        "city": "Galway",
        "country": "Ireland",
        "lat": "53.2736",
        "lon": "9.0433"
    },
    {
        "name": "Transfigurations ",
        "venue_type": "Group",
        "address": "Off Old Mill Road",
        "post_code": "TQ2 5RP",
        "city": "Torquay",
        "country": "England",
        "lat": "50.4685",
        "lon": "3.5342"
    },
    {
        "name": "Safe Harbour",
        "venue_type": "Church",
        "address": "Southernhay URC",
        "post_code": "EX1 1QD",
        "city": "Exeter",
        "country": "England",
        "lat": "50.7237",
        "lon": "3.5259"
    },
    {
        "name": "Hurst Street",
        "venue_type": "Neighbourhood",
        "address": "Hurst Street",
        "post_code": "B5 4TE",
        "city": "Birmingham",
        "country": "England",
        "lat": "52.4743",
        "lon": "1.8972"
    },
    {
        "name": "The Loft",
        "venue_type": "Bar or Pub",
        "address": "43 Bromsgrove St",
        "post_code": "B56RG",
        "city": "Birmingham",
        "country": "England",
        "lat": "52.4732",
        "lon": "1.8964"
    },
    {
        "name": "Missing",
        "venue_type": "Bar or Pub",
        "address": "48 Bromsgrove St",
        "post_code": "B5 6NU",
        "city": "Birmingham",
        "country": "England",
        "lat": "52.4737",
        "lon": "1.8960"
    },
    {
        "name": "The street",
        "venue_type": "Bar or Pub",
        "address": "2b Picardy Pl",
        "post_code": "EH1 3JT",
        "city": "Edinburgh",
        "country": "Scotland",
        "lat": "55.9533",
        "lon": "3.1883"
    },
    {
        "name": "The Glasshouse",
        "venue_type": "Hotel",
        "address": "2 Greenside Pl",
        "post_code": "EH1 3AA",
        "city": "Edinburgh",
        "country": "Scotland",
        "lat": "55.9567",
        "lon": "3.1856"
    },
    {
        "name": "Delmonica's",
        "venue_type": "Café",
        "address": "68 Virginia St",
        "post_code": "G1 1TX",
        "city": "Edinburgh",
        "country": "Scotland",
        "lat": "55.8592",
        "lon": "4.2497"
    },
    {
        "name": "AXM",
        "venue_type": "Club",
        "address": "90 Glassford St",
        "post_code": "G1 1UR",
        "city": "Edinburgh",
        "country": "Scotland",
        "lat": "55.8595",
        "lon": "4.2485"
    },
    {
        "name": "The Salty Dog",
        "venue_type": "Bar or Pub",
        "address": "9 Crichton St",
        "post_code": "DD1 3AP",
        "city": "Dundee",
        "country": "Scotland",
        "lat": "56.4599",
        "lon": "2.9702"
    },
    {
        "name": "News from Nowhere",
        "venue_type": "Other",
        "address": "96 Bold St",
        "post_code": "L1 4HY",
        "city": "Liverpool",
        "country": "England",
        "lat": "53.4026",
        "lon": "2.9775"
    },
    {
        "name": "Navy Bar",
        "venue_type": "Bar or Pub",
        "address": "27 Stanley St",
        "post_code": "L1 3AA",
        "city": "Liverpool",
        "country": "England",
        "lat": "53.4075",
        "lon": "2.9873"
    },
    {
        "name": "OMG",
        "venue_type": "Club",
        "address": "9 Victoria St",
        "post_code": "L2 5QA",
        "city": "Liverpool",
        "country": "England",
        "lat": "53.4068",
        "lon": "2.9882"
    },
    {
        "name": "Blanch House",
        "venue_type": "Hotel",
        "address": "17 Atlingworth St, Kemptown",
        "post_code": "BN2 1PL",
        "city": "Brighton",
        "country": "England",
        "lat": "50.8196",
        "lon": "0.1293"
    },
    {
        "name": "Revenge",
        "venue_type": "Club",
        "address": "5-7 Marine Parade, Kemptown",
        "post_code": "BN2 1TA",
        "city": "Brighton",
        "country": "England",
        "lat": "50.8201",
        "lon": "0.1365"
    },
    {
        "name": "Legend",
        "venue_type": "Hotel",
        "address": "31-34 Marine Parade, Kemptown",
        "post_code": "BN2 1TR",
        "city": "Brighton",
        "country": "England",
        "lat": "50.8197",
        "lon": "0.1329"
    },
    {
        "name": "Sea Life",
        "venue_type": "Other",
        "address": "Marine Parade",
        "post_code": "BN2 1TB",
        "city": "Brighton",
        "country": "England",
        "lat": "50.8196",
        "lon": "0.1358"
    },
    {
        "name": "Painting Pottery Café",
        "venue_type": "Café",
        "address": "31 North Rd",
        "post_code": "BN1 1YB",
        "city": "Brighton",
        "country": "England",
        "lat": "50.8257",
        "lon": "0.1400"
    },
    {
        "name": "Pink Fringe Theatre",
        "venue_type": "Theatre",
        "address": "The Spire, Church Place, Eastern Road",
        "post_code": "BN2 5JN",
        "city": "Brighton",
        "country": "England",
        "lat": "50.8180",
        "lon": "0.1117"
    },
    {
        "name": "The Golden Cross",
        "venue_type": "Bar or Pub",
        "address": "The Golden Cross, 283 Hayes Bridge Rd",
        "post_code": "CF10 1GH",
        "city": "Cardiff",
        "country": "Wales",
        "lat": "51.4771",
        "lon": "3.1743"
    },
    {
        "name": "Minsky’s Showbar",
        "venue_type": "Bar or Pub",
        "address": "42 Charles Street",
        "post_code": "CF10 2GE",
        "city": "Cardiff",
        "country": "Wales",
        "lat": "51.4807",
        "lon": "3.1737"
    },
    {
        "name": "Stag Coffee",
        "venue_type": "Café",
        "address": "83 Crwys Rd",
        "post_code": "CF24 4NF",
        "city": "Cardiff",
        "country": "Wales",
        "lat": "51.4955",
        "lon": "3.1793"
    },
    {
        "name": "Park Plaza Hotel ",
        "venue_type": "Hotel",
        "address": "Greyfriars Road",
        "post_code": "CF10 3AL",
        "city": "Cardiff",
        "country": "Wales",
        "lat": "51.4836",
        "lon": "3.1767"
    }
]